City_ID,City,Cloudiness,Country,Date,Humidity,Lat,Lng,Max Temp,Wind Speed
0,olinda,90,EC,1547611200,83,-2.03,-79.75,78.8,2.24
1,alta floresta,56,BR,1547613569,97,-9.87,-56.08,72.72,1.95
2,port lincoln,92,AU,1547613374,75,-34.72,135.86,73.17,14.14
3,ossora,0,RU,1547613830,100,59.24,163.07,-17.28,9.44
4,kapaa,1,US,1547610960,61,22.08,-159.32,77.0,11.41
5,mataura,36,NZ,1547613565,50,-46.19,168.86,75.24,10.33
6,tasiilaq,80,GL,1547610600,55,65.61,-37.64,6.8,3.36
7,hilo,90,US,1547610780,62,19.71,-155.08,73.94,9.44
8,obo,0,CF,1547613831,90,5.39,26.49,69.12,4.63
9,new norfolk,75,AU,1547611200,52,-42.78,147.06,68.0,18.34
10,swan hill,64,AU,1547613831,58,-35.34,143.56,98.82,0.72
11,piacabucu,56,BR,1547613832,92,-10.41,-36.43,73.89,3.74
12,georgetown,75,GY,1547611200,88,6.8,-58.16,77.0,6.93
13,severo-kurilsk,88,RU,1547613506,100,50.68,156.12,29.25,22.08
14,kavieng,24,PG,1547613708,100,-2.57,150.8,82.62,5.75
15,catuday,0,PH,1547613833,82,16.29,119.81,83.79,4.97
16,ushuaia,40,AR,1547611200,80,-54.81,-68.31,39.2,17.22
17,punta arenas,40,CL,1547611200,65,-53.16,-70.91,41.0,20.8
18,touros,75,BR,1547611200,94,-5.2,-35.46,77.0,2.24
19,marathon,12,CA,1547613833,100,48.72,-86.38,8.82,20.85
20,san quintin,0,PH,1547613597,54,17.54,120.52,82.35,5.19
21,cape town,0,ZA,1547611200,82,-33.93,18.42,62.6,4.7
22,yellowknife,20,CA,1547611200,66,62.45,-114.38,-31.01,4.7
23,marawi,80,PH,1547613834,56,8.0,124.29,81.0,3.96
24,lorengau,68,PG,1547613797,99,-2.02,147.27,83.52,11.23
25,sorong,100,ID,1547613834,100,-0.86,131.25,75.51,4.97
26,albany,90,US,1547613000,74,42.65,-73.75,30.02,3.36
27,rikitea,80,PF,1547613563,97,-23.12,-134.97,80.55,14.03
28,busselton,0,AU,1547613596,88,-33.64,115.35,71.46,13.8
29,naron,88,ES,1547611200,76,43.52,-8.15,51.8,3.36
30,hobart,75,AU,1547611200,52,-42.88,147.33,68.0,18.34
31,quievrain,75,BE,1547612400,80,50.41,3.68,42.8,11.41
32,plettenberg bay,36,ZA,1547613835,100,-34.05,23.37,67.41,11.23
33,puerto ayora,48,EC,1547613326,100,-0.74,-90.35,76.05,8.32
34,torbay,90,CA,1547611200,92,47.66,-52.73,28.4,38.03
35,tuktoyaktuk,5,CA,1547611200,75,69.44,-133.03,-18.41,11.41
36,balaipungut,24,ID,1547613836,65,1.11,101.31,90.27,3.51
37,mamallapuram,32,IN,1547611200,83,12.63,80.17,78.8,3.36
38,khatanga,76,RU,1547613567,62,71.98,102.47,-7.92,10.67
39,esperance,20,TT,1547611200,88,10.24,-61.45,75.2,6.31
40,jamestown,68,AU,1547613409,33,-33.21,138.6,99.27,8.99
41,la ronge,5,CA,1547611200,82,55.1,-105.3,-20.21,2.73
42,deputatskiy,0,RU,1547613837,0,69.3,139.9,-55.08,2.51
43,kahului,40,US,1547610960,64,20.89,-156.47,75.92,5.82
44,pergamino,0,AR,1547613837,85,-33.9,-60.57,59.04,2.95
45,bereda,92,ES,1547611200,76,43.27,-7.54,51.8,3.36
46,alpena,90,US,1547613360,88,45.06,-83.43,31.1,14.99
47,chuy,68,UY,1547613567,100,-33.69,-53.46,70.2,15.48
48,tessalit,0,ML,1547613581,32,20.2,1.01,38.25,6.53
49,mount gambier,88,AU,1547611200,57,-37.83,140.78,77.0,11.41
50,port-cartier,40,CA,1547611200,76,50.03,-66.88,-4.01,8.05
51,bredasdorp,64,ZA,1547611200,88,-34.53,20.04,66.2,16.11
52,barrow,0,AR,1547613597,62,-38.31,-60.23,71.82,15.14
53,markova,0,RU,1547613000,77,52.21,104.21,1.4,4.47
54,arraial do cabo,0,BR,1547613564,85,-22.97,-42.02,77.49,17.83
55,provideniya,90,RU,1547611200,94,64.42,-173.23,32.0,17.9
56,constitucion,24,MX,1547613714,80,23.99,-104.67,42.66,3.96
57,cabo san lucas,20,MX,1547610000,77,22.89,-109.91,68.0,9.17
58,dingle,44,PH,1547613410,71,11.0,122.67,80.46,17.05
59,tiksi,0,RU,1547613482,0,71.64,128.87,-49.14,2.95
60,canavieiras,88,BR,1547613841,86,-15.68,-38.95,77.4,3.62
61,vanavara,80,RU,1547613789,78,60.35,102.28,3.96,4.41
62,port alfred,92,ZA,1547613573,100,-33.59,26.89,70.29,10.45
63,shenjiamen,92,CN,1547613841,100,29.96,122.3,44.37,17.83
64,itanagar,20,IN,1547611200,63,27.1,93.63,64.4,2.24
65,hermanus,0,ZA,1547613598,78,-34.42,19.24,64.98,6.64
66,isangel,76,VU,1547613842,100,-19.55,169.27,79.56,7.87
67,sept-iles,40,CA,1547611200,76,50.2,-66.38,-4.01,8.05
68,haines junction,80,CA,1547613775,71,60.75,-137.51,-1.26,2.28
69,azangaro,32,PE,1547613843,96,-14.91,-70.2,29.97,2.95
70,faanui,76,PF,1547613454,100,-16.48,-151.75,83.61,12.46
71,salinopolis,76,BR,1547613843,100,-0.61,-47.36,77.76,11.12
72,longyearbyen,20,NO,1547610600,70,78.22,15.63,1.4,6.93
73,coquimbo,0,CL,1547611200,87,-29.95,-71.34,60.8,4.7
74,aklavik,5,CA,1547611200,68,68.22,-135.01,-16.61,4.7
75,grand-santi,20,GF,1547613769,96,4.27,-54.38,73.35,3.06
76,qaanaaq,0,GL,1547613577,90,77.48,-69.36,-28.89,9.44
77,arman,0,RU,1547613844,36,59.7,150.17,-24.66,2.62
78,saint-philippe,90,CA,1547612220,86,45.36,-73.48,28.4,8.05
79,juneau,90,US,1547613360,100,58.3,-134.42,39.02,2.95
80,atuona,92,PF,1547613396,100,-9.8,-139.03,80.46,15.93
81,lompoc,90,US,1547612100,86,34.64,-120.46,57.02,5.82
82,sistranda,20,NO,1547612400,85,63.73,8.83,23.0,17.22
83,vila,0,IT,1547612400,68,45.18,8.4,32.0,8.05
84,tieling,8,CN,1547613845,50,42.29,123.84,26.91,10.89
85,rocha,68,UY,1547613845,96,-34.48,-54.34,67.32,13.35
86,bulgan,0,MN,1547613850,24,48.81,103.53,19.26,3.74
87,pitimbu,20,BR,1547611200,88,-7.47,-34.81,75.2,3.36
88,buala,92,SB,1547613566,92,-8.15,159.59,83.61,3.18
89,manokwari,48,ID,1547613851,100,-0.87,134.08,81.63,4.74
90,omsukchan,8,RU,1547613851,0,62.53,155.8,-43.29,2.51
91,hasaki,40,JP,1547611200,39,35.73,140.83,51.8,6.93
92,mahebourg,40,MU,1547611200,78,-20.41,57.7,80.6,4.7
93,butaritari,56,KI,1547613622,100,3.07,172.79,83.79,19.51
94,paamiut,76,GL,1547613851,100,61.99,-49.67,28.89,25.88
95,bilma,0,NE,1547613719,40,18.69,12.92,35.46,6.98
96,minador do negrao,80,BR,1547613852,97,-9.31,-36.86,70.29,3.96
97,thinadhoo,56,MV,1547613852,100,0.53,72.93,78.84,3.74
98,nikolskoye,75,RU,1547611200,86,59.7,30.79,26.6,6.71
99,ribeira grande,12,PT,1547613611,97,38.52,-28.7,61.74,5.75
100,kumasi,12,GH,1547613853,96,6.7,-1.62,71.64,3.96
101,fairbanks,1,US,1547611080,79,64.84,-147.72,-13.55,6.2
102,pisco,88,PE,1547613418,91,-13.71,-76.2,67.77,4.85
103,dawlatabad,36,AF,1547613854,99,36.41,64.91,50.76,4.74
104,camacha,75,PT,1547611200,63,33.08,-16.33,60.8,12.75
105,hithadhoo,44,MV,1547613566,100,-0.6,73.08,80.1,6.08
106,gravdal,92,NO,1547612400,93,59.79,5.78,46.4,19.46
107,khokhryaki,92,RU,1547613855,89,56.92,53.32,26.46,10.45
108,muros,90,ES,1547611200,93,42.77,-9.06,46.4,3.36
109,kaitangata,76,NZ,1547613593,83,-46.28,169.85,71.46,0.6
110,thompson,5,CA,1547611200,67,55.74,-97.86,-23.81,4.7
111,bluff,12,AU,1547613589,31,-23.58,149.07,96.57,9.78
112,pangnirtung,64,CA,1547613691,42,66.15,-65.72,-14.13,8.43
113,pimentel,76,BR,1547613486,98,-3.7,-45.5,72.36,2.84
114,west bay,75,GB,1547610600,87,50.71,-2.76,48.2,12.75
115,viedma,12,AR,1547613856,65,-40.81,-62.99,66.42,4.52
116,vaini,0,IN,1547611200,43,15.34,74.49,71.6,6.93
117,cartagena,68,ES,1547611200,93,37.63,-1.0,42.8,4.7
118,alofi,92,NU,1547611200,74,-19.06,-169.92,86.0,8.05
119,macamic,90,CA,1547612340,100,48.75,-79.0,23.0,11.41
120,chokurdakh,8,RU,1547613418,0,70.62,147.9,-45.18,2.95
121,lucapa,36,AO,1547613858,86,-8.42,20.74,72.0,3.85
122,cherskiy,76,RU,1547613579,41,68.75,161.3,-26.19,4.97
123,koslan,88,RU,1547613858,85,63.46,48.9,22.32,6.76
124,gat,0,SN,1547611200,88,14.69,-16.54,64.4,13.87
125,beziers,0,FR,1547611200,86,43.35,3.22,35.6,3.36
126,upernavik,32,GL,1547613581,100,72.79,-56.15,-4.5,9.44
127,paita,44,PE,1547613859,81,-5.09,-81.11,73.26,6.98
128,carnarvon,0,ZA,1547613595,44,-30.97,22.13,68.31,8.32
129,rio gallegos,40,AR,1547611200,52,-51.62,-69.22,46.4,29.97
130,cidreira,8,BR,1547613613,91,-30.17,-50.22,75.69,6.2
131,kamenka,92,RU,1547613772,96,53.19,44.05,31.77,12.8
132,lundazi,92,ZM,1547613860,82,-12.29,33.17,70.2,6.42
133,dikson,76,RU,1547613578,100,73.51,80.55,9.27,10.45
134,homer,75,US,1547610780,78,59.64,-151.54,30.92,3.36
135,tuatapere,48,NZ,1547613601,57,-46.13,167.69,69.12,14.03
136,ola,76,RU,1547613662,100,59.58,151.3,-2.61,15.59
137,cabedelo,20,BR,1547611200,88,-6.97,-34.84,75.2,3.36
138,apolda,75,DE,1547612400,80,51.02,11.51,41.0,17.22
139,caala,92,AO,1547613862,97,-12.85,15.56,56.25,3.18
140,black diamond,90,CA,1547611200,100,50.69,-114.23,23.0,9.17
141,ishigaki,75,JP,1547611200,100,24.34,124.16,66.2,25.28
142,mnogovershinnyy,80,RU,1547613797,68,53.94,139.92,-5.49,6.76
143,gamba,0,CN,1547613862,72,28.28,88.52,19.35,3.18
144,natal,90,BR,1547611200,88,-5.81,-35.21,77.0,8.05
145,biu,0,NG,1547613863,37,10.61,12.19,56.07,7.43
146,wesselsbron,0,ZA,1547613863,70,-27.85,26.36,74.52,13.8
147,helong,92,CN,1547613864,89,25.94,116.13,44.55,3.62
148,leningradskiy,88,RU,1547613467,99,69.38,178.42,-0.27,26.11
149,hami,8,CN,1547613864,84,42.84,93.51,19.62,3.74
150,yeppoon,20,AU,1547611200,45,-23.13,150.74,87.8,10.29
151,bethel,75,US,1547610960,88,60.79,-161.76,33.98,6.93
152,hay river,90,CA,1547611200,69,60.82,-115.79,-11.21,5.82
153,prince rupert,1,CA,1547611200,93,54.32,-130.32,35.6,3.85
154,pevek,92,RU,1547613568,91,69.7,170.27,-6.93,19.51
155,vanimo,24,PG,1547613865,100,-2.67,141.3,83.07,19.84
156,boffa,0,GN,1547613865,90,10.18,-14.04,67.14,1.05
157,san ignacio,44,CL,1547611200,55,-36.8,-72.03,60.8,5.82
158,zalantun,0,CN,1547613866,25,48.0,122.72,11.07,11.68
159,lata,88,IN,1547613569,73,30.78,78.62,45.81,1.28
160,lima,0,PE,1547611200,88,-12.06,-77.04,71.6,12.75
161,lyubim,44,RU,1547613867,86,58.36,40.69,22.14,12.12
162,las choapas,92,MX,1547613867,100,17.91,-94.09,69.39,10.67
163,kidal,0,ML,1547613868,54,18.44,1.41,42.3,3.4
164,castro,20,CL,1547611200,87,-42.48,-73.76,50.0,6.93
165,port elizabeth,1,US,1547610960,80,39.31,-74.98,28.04,4.97
166,mut,56,TR,1547613868,84,36.64,33.44,29.43,5.41
167,adrar,0,DZ,1547611200,38,27.87,-0.29,41.0,5.82
168,souillac,20,FR,1547611200,92,45.6,-0.6,33.8,2.24
169,komsomolskiy,80,RU,1547613573,80,67.55,63.78,9.9,6.42
170,saldanha,32,PT,1547613473,77,41.42,-6.55,22.77,2.95
171,aquiraz,40,BR,1547611200,88,-3.9,-38.39,78.8,3.62
172,noshiro,75,JP,1547612160,58,40.21,140.05,30.2,17.22
173,shaoyang,92,CN,1547613869,99,27.23,111.45,32.13,2.73
174,ancud,20,CL,1547611200,87,-41.87,-73.83,50.0,6.93
175,port hedland,0,AU,1547611200,35,-20.31,118.58,100.4,11.41
176,ginda,88,IN,1547613870,73,30.69,78.49,45.81,1.28
177,talnakh,76,RU,1547613623,79,69.49,88.39,3.78,6.08
178,raudeberg,75,NO,1547612400,93,61.99,5.14,35.6,10.29
179,avarua,75,CK,1547611200,74,-21.21,-159.78,80.6,10.29
180,bambanglipuro,92,ID,1547613870,84,-7.95,110.28,80.1,12.8
181,amvrosiyivka,88,UA,1547613870,91,47.79,38.48,26.28,15.48
182,guerrero negro,68,MX,1547613615,98,27.97,-114.04,57.6,3.18
183,portage,90,US,1547612100,97,41.58,-87.18,32.0,11.41
184,ranong,20,TH,1547611200,66,9.96,98.62,87.8,3.36
185,ponta do sol,0,BR,1547613476,77,-20.63,-46.0,64.71,1.61
186,taos,24,US,1547613300,89,36.41,-105.57,19.22,2.06
187,kichera,0,RU,1547613871,63,55.93,110.1,-1.53,2.17
188,maniitsoq,80,GL,1547613568,100,65.42,-52.9,23.85,10.67
189,katakwi,12,UG,1547613633,76,1.91,33.96,71.1,2.62
190,poum,8,MK,1547613755,57,41.28,20.71,3.51,1.83
191,anadyr,90,RU,1547611200,76,64.73,177.51,-5.81,15.66
192,opuwo,92,NA,1547613872,45,-18.06,13.84,66.15,2.39
193,nuuk,80,GL,1547610600,92,64.17,-51.74,21.2,13.87
194,niamtougou,20,TG,1547613872,34,9.77,1.11,63.54,7.43
195,muskegon,90,US,1547610900,77,43.23,-86.25,33.08,12.75
196,eureka,90,US,1547613300,100,40.8,-124.16,53.96,13.87
197,batagay,0,RU,1547613670,0,67.65,134.64,-70.02,2.73
198,san juan,20,PH,1547611200,49,14.6,121.03,89.6,11.41
199,meulaboh,0,ID,1547613566,100,4.14,96.13,83.16,3.74
200,lebu,0,ET,1547613605,34,8.96,38.73,56.07,4.07
201,oktyabrskiy,75,RU,1547611200,92,55.61,37.97,21.2,2.24
202,bafq,0,IR,1547613875,46,31.6,55.4,57.06,3.96
203,la asuncion,44,EC,1547613876,99,-1.64,-78.74,40.95,2.17
204,hamilton,75,BM,1547610900,87,32.3,-64.78,59.0,14.99
205,the valley,75,AI,1547611200,78,18.22,-63.06,75.2,8.05
206,vao,80,EE,1547613578,84,59.1,26.19,23.76,10.78
207,mar del plata,68,AR,1547613602,42,-46.43,-67.52,61.29,15.03
208,fukue,20,JP,1547613000,100,35.03,136.69,48.2,21.92
209,nanortalik,92,GL,1547613468,95,60.14,-45.24,29.88,15.48
210,tura,0,IN,1547613594,64,25.52,90.21,69.75,3.96
211,baijiantan,88,CN,1547613877,94,45.63,85.18,0.27,3.18
212,norman wells,75,CA,1547611200,69,65.28,-126.83,-11.21,9.17
213,east london,75,ZA,1547611200,78,-33.02,27.91,71.6,9.17
214,barra patuca,24,HN,1547613878,86,15.8,-84.28,78.75,11.56
215,ternate,20,PH,1547611200,49,14.29,120.72,89.6,11.41
216,yuli,0,NG,1547613879,57,10.52,9.86,50.22,3.85
217,shumskiy,20,RU,1547613879,48,54.83,99.13,8.01,2.17
218,sabinopolis,0,BR,1547613879,82,-18.67,-43.08,67.5,3.96
219,santa rosalia,0,IT,1547612400,56,38.07,13.27,44.6,6.93
220,sisimiut,36,GL,1547613788,100,66.94,-53.67,-6.75,2.17
221,carutapera,80,BR,1547613880,99,-1.2,-46.02,76.5,6.87
222,onguday,80,RU,1547613881,68,50.75,86.14,8.64,2.39
223,meiktila,0,MM,1547613881,68,20.88,95.86,76.77,9.66
224,gayeri,0,BF,1547613881,43,12.65,0.49,56.97,5.19
225,cua,20,VE,1547611200,88,10.16,-66.89,73.4,2.24
226,codrington,8,AU,1547611200,38,-28.95,153.24,96.8,19.46
227,victoria,75,BN,1547611200,74,5.28,115.24,87.8,6.93
228,kisangani,92,CD,1547613690,100,0.52,25.21,69.48,2.84
229,goundam,0,ML,1547613882,55,16.42,-3.66,55.8,6.2
230,bilibino,80,RU,1547613419,0,68.06,166.44,-33.93,2.95
231,sulangan,80,PH,1547613769,100,11.14,123.72,79.56,17.27
232,crystal beach,90,CA,1547610840,80,42.87,-79.06,26.96,19.46
233,ajdabiya,20,LY,1547613883,77,30.75,20.22,45.63,5.64
234,kruisfontein,80,ZA,1547613438,92,-34.0,24.73,68.22,9.66
235,yulara,0,AU,1547611200,10,-25.24,130.99,111.2,16.11
236,tshikapa,32,CD,1547613884,91,-6.42,20.79,74.16,2.73
237,waipawa,92,NZ,1547613578,98,-39.94,176.59,61.83,8.66
238,guane,0,CU,1547613884,91,22.2,-84.09,63.36,6.08
239,seoul,1,KR,1547613000,32,37.57,126.98,29.12,3.36
240,guaymas,0,MX,1547613884,82,27.92,-110.9,51.48,2.95
241,marakkanam,12,IN,1547613885,83,12.2,79.95,81.0,9.55
242,pauini,92,BR,1547613885,100,-7.71,-67.0,72.36,2.39
243,bonavista,92,CA,1547613885,99,48.65,-53.11,30.24,38.07
244,north bend,90,US,1547610960,76,43.41,-124.22,46.94,6.93
245,vila velha,40,BR,1547611200,88,-3.71,-38.6,78.8,10.22
246,majene,80,ID,1547613616,100,-3.54,118.97,80.19,18.5
247,mountain home,1,US,1547611080,100,43.13,-115.69,30.92,13.87
248,lavrentiya,88,RU,1547613436,95,65.58,-170.99,32.76,14.25
249,libertador general san martin,92,AR,1547613887,97,-23.81,-64.79,67.41,2.17
250,buenos aires,40,AR,1547611200,88,-34.61,-58.44,69.8,4.7
251,ilulissat,56,GL,1547610600,72,69.22,-51.1,10.4,2.24
252,san jeronimo,48,PE,1547613887,100,-13.65,-73.37,41.58,1.72
253,college,1,US,1547611080,79,64.86,-147.8,-4.01,6.2
254,pemba,75,MZ,1547611200,88,-12.97,40.52,80.6,4.7
255,mugumu,92,TZ,1547613888,99,-1.84,34.67,61.92,3.62
256,hoima,76,UG,1547613888,73,1.43,31.35,70.92,4.74
257,saint anthony,90,US,1547610960,77,43.97,-111.68,24.08,3.18
258,geraldton,75,CA,1547611200,70,49.72,-86.95,-5.81,13.87
259,mangan,0,IN,1547613889,39,27.5,88.54,32.4,1.72
260,luderitz,0,NA,1547613734,90,-26.65,15.16,60.39,1.5
261,faya,0,SA,1547611200,45,18.39,42.45,53.6,3.06
262,jalu,0,LY,1547613889,79,29.03,21.55,39.87,5.64
263,shimoda,75,JP,1547611200,50,34.7,138.93,53.6,11.41
264,salekhard,56,RU,1547613890,63,66.54,66.62,-8.01,3.62
265,cicero dantas,0,BR,1547613890,93,-10.6,-38.38,66.24,3.4
266,lodja,80,CD,1547613672,94,-3.52,23.6,73.44,3.4
267,mayo,90,CA,1547611200,84,63.59,-135.9,8.6,2.62
268,beringovskiy,64,RU,1547613590,90,63.05,179.32,5.49,17.72
269,mitsamiouli,75,KM,1547611200,88,-11.38,43.28,78.8,6.93
270,kano,0,NG,1547613891,59,11.99,8.53,47.79,3.62
271,iacu,64,BR,1547613891,97,-12.77,-40.21,69.66,3.4
272,labuhan,88,ID,1547613706,88,-2.54,115.51,78.57,2.51
273,palmerston north,64,NZ,1547613892,96,-40.35,175.62,63.0,8.66
274,gatesville,5,US,1547614500,93,31.44,-97.74,45.5,5.82
275,ahipara,56,NZ,1547613668,81,-35.17,173.16,68.31,18.05
276,filingue,0,NE,1547613892,47,14.35,3.32,52.2,6.76
277,elat,92,CM,1547613892,95,2.91,11.16,70.29,2.73
278,jega,0,NG,1547613893,36,12.22,4.38,58.86,9.78
279,bahir dar,0,ET,1547613893,41,11.59,37.39,63.45,4.97
280,murgab,32,TM,1547611200,86,37.5,61.97,41.0,4.7
281,kenai,75,US,1547610960,73,60.55,-151.26,21.02,3.36
282,mujiayingzi,0,CN,1547613781,19,42.12,118.78,30.06,7.65
283,oranjemund,0,ZA,1547613675,97,-28.55,16.43,62.46,17.16
284,dunedin,80,NZ,1547613504,88,-45.87,170.5,70.56,1.39
285,port hardy,5,CA,1547611200,80,50.7,-127.42,39.2,9.17
286,alyangula,75,AU,1547611200,70,-13.85,136.42,87.8,9.17
287,cayenne,90,GF,1547611200,83,4.94,-52.33,78.8,5.82
288,vila franca do campo,20,PT,1547611200,87,37.72,-25.43,57.2,10.89
289,bambous virieux,40,MU,1547611200,78,-20.34,57.76,80.6,4.7
290,erzin,75,TR,1547612400,100,36.95,36.2,51.8,8.05
291,roald,80,NO,1547612400,100,62.58,6.12,32.0,4.7
292,klaksvik,76,FO,1547612400,100,62.23,-6.59,33.8,8.05
293,okha,88,RU,1547613788,83,53.59,142.95,9.27,20.18
294,port blair,36,IN,1547613675,100,11.67,92.75,82.44,16.49
295,saint-joseph,90,FR,1547613000,75,43.56,6.97,42.8,6.93
296,zhuhai,0,CN,1547611200,30,40.71,112.04,12.2,4.47
297,kieta,44,PG,1547613634,100,-6.22,155.63,81.0,3.96
298,krasnoborsk,80,RU,1547613895,78,61.56,45.93,26.64,8.66
299,mahanoro,24,MG,1547613896,82,-19.9,48.8,80.73,2.73
300,manaus,0,BR,1547611200,83,-3.13,-59.98,78.8,3.36
301,toora-khem,24,RU,1547613852,51,52.47,96.11,-1.98,2.39
302,gberia fotombu,0,SL,1547613897,49,9.88,-11.17,62.91,5.75
303,saskylakh,24,RU,1547613567,51,71.97,114.09,-30.78,18.5
304,katsuura,75,JP,1547611200,74,33.93,134.5,48.2,11.41
305,nouadhibou,32,MR,1547607600,51,20.93,-17.03,60.8,12.75
306,margate,75,AU,1547611200,52,-43.03,147.26,68.0,18.34
307,arlit,0,NE,1547613628,75,18.74,7.39,45.09,3.18
308,lampang,20,TH,1547611200,69,18.29,99.49,80.6,4.7
309,kindu,56,CD,1547613898,93,-2.95,25.92,74.07,2.39
310,ashqelon,0,IL,1547612400,34,31.67,34.57,53.6,20.8
311,tamalameque,0,CO,1547613898,63,8.86,-73.82,83.16,5.41
312,ghelinta,76,RO,1547613827,77,45.95,26.23,28.08,8.77
313,mayahi,0,NE,1547613899,63,13.95,7.67,47.34,9.1
314,abidjan,20,CI,1547611200,88,5.32,-4.02,82.4,9.17
315,nishihara,20,JP,1547611200,32,35.74,139.53,51.8,14.99
316,tabas,0,IR,1547611200,65,33.6,56.92,41.0,4.7
317,merauke,32,ID,1547613900,86,-8.49,140.4,85.86,8.43
318,sao filipe,0,CV,1547613495,100,14.9,-24.5,71.1,14.25
319,great yarmouth,92,GB,1547612400,87,52.61,1.73,46.4,12.75
320,mount isa,75,AU,1547611200,24,-20.73,139.49,100.4,4.7
321,bathsheba,40,BB,1547611200,78,13.22,-59.52,77.0,14.99
322,blytheville,1,US,1547612100,100,35.93,-89.92,35.96,4.7
323,leyland,75,GB,1547612400,81,53.69,-2.7,50.0,9.17
324,vestmannaeyjar,0,IS,1547613484,100,63.44,-20.27,27.63,19.17
325,jijiga,0,ET,1547613901,37,9.35,42.8,65.97,3.74
326,naze,8,NG,1547613522,92,5.43,7.07,70.74,3.18
327,evanston,90,US,1547613060,88,42.04,-87.69,33.08,11.41
328,sioux lookout,20,CA,1547611200,76,50.1,-91.92,-4.01,6.93
329,rosario,0,UY,1547613630,93,-34.31,-57.35,65.43,5.08
330,luganville,68,VU,1547613903,100,-15.51,167.18,81.99,6.42
331,la palma,64,CO,1547613904,100,5.36,-74.39,64.98,2.17
332,krasnyy chikoy,0,RU,1547613713,37,50.36,108.75,18.63,2.95
333,totness,20,US,1547612640,96,33.74,-80.8,42.8,2.84
334,sawtell,12,AU,1547611200,61,-30.38,153.1,91.4,24.16
335,bagdarin,0,RU,1547613905,58,54.44,113.59,7.74,2.28
336,aneho,20,TG,1547611200,94,6.23,1.6,80.6,4.7
337,zelenets,92,RU,1547613906,93,53.83,48.02,28.44,16.82
338,tchollire,0,CM,1547613906,70,8.4,14.17,54.72,2.06
339,narsaq,80,GL,1547610600,79,60.91,-46.05,26.6,3.36
340,padang,40,ID,1547609400,62,-0.92,100.36,84.2,2.24
341,laguna,0,MX,1547613907,89,27.52,-110.01,56.97,2.39
342,lakeway,75,US,1547613300,100,30.36,-97.99,50.0,5.82
343,kodiak,90,US,1547610900,100,39.95,-94.76,32.0,8.05
344,caravelas,32,BR,1547613646,100,-17.73,-39.27,80.73,11.9
345,christchurch,36,NZ,1547613000,63,-43.53,172.64,64.4,18.34
346,broome,92,GB,1547612400,87,52.47,1.45,46.4,12.75
347,matagami,0,NG,1547613908,48,9.67,8.4,59.22,4.18
348,ngorongoro,92,TZ,1547613908,100,-3.24,35.49,58.77,2.73
349,broken hill,32,AU,1547611200,9,-31.97,141.45,113.0,20.8
350,treinta y tres,88,UY,1547613908,100,-33.23,-54.39,67.32,10.0
351,sao joao da barra,0,BR,1547613668,97,-21.64,-41.05,79.47,26.22
352,ust-kan,76,RU,1547613909,78,50.93,84.77,15.21,2.39
353,sola,90,NO,1547612400,93,58.89,5.65,46.4,12.75
354,airai,64,TL,1547613512,74,-8.93,125.41,80.37,0.72
355,cockburn town,0,TC,1547613424,100,21.46,-71.14,77.4,7.99
356,galbshtadt,80,RU,1547613864,90,53.23,78.98,16.92,6.64
357,bakchar,64,RU,1547613910,83,57.02,82.07,14.85,3.62
358,tanabe,40,JP,1547611200,53,33.73,135.39,50.0,16.11
359,roshal,80,RU,1547613910,85,55.66,39.88,21.24,7.76
360,ixtapa,75,MX,1547610300,100,20.71,-105.21,75.2,2.24
361,kysyl-syr,8,RU,1547613666,0,63.9,122.77,-43.11,3.06
362,tecpan,20,GT,1547611200,77,14.76,-90.99,60.8,16.11
363,novoagansk,76,RU,1547613863,75,61.94,76.66,11.97,7.65
364,ostrovnoy,80,RU,1547613646,82,68.05,39.51,15.57,6.98
365,clyde river,1,CA,1547611200,74,70.47,-68.59,-25.61,5.82
366,araceli,0,PH,1547613911,98,10.55,119.99,80.55,25.1
367,jacqueville,20,CI,1547611200,88,5.21,-4.42,82.4,9.17
368,caucaguita,20,VE,1547611200,88,10.36,-66.8,73.4,2.24
369,pizarro,68,CO,1547613912,98,4.95,-77.37,78.39,1.61
370,khandyga,12,RU,1547613912,0,62.65,135.58,-44.82,2.73
371,nizwa,0,OM,1547613913,67,22.93,57.53,68.76,3.4
372,bodden town,92,KY,1547613913,100,19.28,-81.25,77.04,11.79
373,the pas,1,CA,1547611200,74,53.82,-101.24,-22.01,3.18
374,new glasgow,0,CA,1547613914,91,45.59,-62.65,15.3,6.2
375,mitu,12,IR,1547613914,63,36.2,46.09,34.11,4.18
376,bang saphan,20,TH,1547611200,66,11.21,99.51,87.8,4.7
377,daru,0,SL,1547613629,86,7.99,-10.85,71.19,3.18
378,saint george,20,GR,1547612400,59,39.45,22.34,33.8,16.11
379,huarmey,12,PE,1547613733,94,-10.07,-78.15,63.0,3.18
380,belmonte,36,PT,1547613659,73,40.36,-7.35,27.27,2.62
381,oyem,92,GA,1547613916,98,1.6,11.57,71.19,2.73
382,marzuq,0,YE,1547613916,31,14.4,46.47,65.61,4.07
383,panguipulli,75,CL,1547611200,100,-39.64,-72.33,55.4,2.24
384,panacan,75,PH,1547611200,74,7.15,125.66,82.4,11.41
385,makakilo city,90,US,1547611020,53,21.35,-158.09,78.98,8.05
386,sitka,0,US,1547613457,70,37.17,-99.65,26.37,2.73
387,bay roberts,90,CA,1547611200,92,47.58,-53.28,28.4,38.03
388,ramhormoz,75,IR,1547611200,77,31.28,49.6,62.6,9.17
389,karak,24,JO,1547611200,69,31.18,35.7,35.6,9.17
390,tabou,12,CI,1547613717,100,4.42,-7.36,82.71,9.66
391,gonzales,90,US,1547613000,93,36.51,-121.44,55.94,6.93
392,egvekinot,64,RU,1547613669,98,66.32,-179.17,-1.35,2.95
393,doha,0,QA,1547611200,88,25.29,51.53,68.0,8.05
394,verkhnevilyuysk,0,RU,1547613919,0,63.45,120.31,-41.31,4.52
395,xiaolan,75,CN,1547611200,63,22.67,113.23,62.6,13.42
396,natitingou,20,BJ,1547613920,31,10.31,1.38,62.82,6.64
397,norsup,56,VU,1547613920,100,-16.07,167.38,79.83,3.96
398,acapulco,5,MX,1547610240,88,16.86,-99.88,75.2,4.7
399,seymchan,12,RU,1547613921,0,62.93,152.39,-40.95,2.51
400,ngunguru,0,NZ,1547613921,86,-35.62,174.5,72.09,21.52
401,mahina,0,ML,1547613922,65,13.76,-10.85,62.19,2.62
402,coos bay,90,US,1547610960,76,43.37,-124.22,46.94,6.93
403,mayaky,68,UA,1547613922,66,47.44,29.56,14.49,7.2
404,tucuman,80,PE,1547613922,86,-17.17,-70.89,58.14,1.61
405,quelimane,75,MZ,1547611200,94,-17.88,36.89,77.0,4.7
406,suhbaatar,0,MN,1547613923,65,50.23,106.21,9.27,4.18
407,clarence town,0,AU,1547611200,46,-32.59,151.78,93.2,10.29
408,puerto colombia,20,CO,1547611200,78,10.99,-74.96,78.8,18.34
409,veraval,90,FR,1547611200,80,49.65,0.71,42.8,8.05
410,mahon,75,IE,1547613000,93,51.89,-8.4,41.0,8.05
411,hofn,0,IS,1547613573,100,64.25,-15.21,33.39,27.11
412,camopi,92,GF,1547613590,99,3.17,-52.33,73.62,2.39
413,ankazoabo,44,MG,1547613925,84,-22.29,44.51,80.19,7.76
414,requena,0,ES,1547611200,100,39.49,-1.1,37.4,2.62
415,portobelo,20,PA,1547611200,73,9.55,-79.65,77.0,2.24
416,yefremov,88,RU,1547613926,87,53.14,38.12,15.66,4.41
417,coralville,90,US,1547612100,84,41.68,-91.58,35.6,13.87
418,nome,90,US,1547612100,75,30.04,-94.42,49.46,2.84
419,walsrode,75,DE,1547612400,87,52.86,9.59,44.6,14.99
420,kholmogory,90,RU,1547611200,100,64.23,41.65,24.8,6.71
421,goure,0,NE,1547613776,55,13.98,10.27,51.12,9.78
422,chinsali,92,ZM,1547613927,100,-10.55,32.07,64.44,4.07
423,aksu,90,KZ,1547611200,92,52.04,76.93,8.6,8.95
424,perth,90,GB,1547612400,93,56.4,-3.43,46.4,18.34
425,kargil,80,PK,1547613928,76,34.56,76.13,-1.08,1.72
426,general roca,0,AR,1547611200,16,-39.03,-67.58,73.4,5.82
427,leighton buzzard,90,GB,1547612400,87,51.92,-0.66,48.2,13.87
428,xining,0,CN,1547613780,12,36.62,101.77,30.87,12.12
429,grand gaube,40,MU,1547611200,78,-20.01,57.66,80.6,4.7
430,effingham,90,US,1547613300,89,39.12,-88.54,35.6,10.29
431,hede,20,SE,1547612400,100,60.45,15.49,8.6,3.36
432,pacific grove,90,US,1547613000,83,36.62,-121.92,55.94,9.17
433,linxia,0,CN,1547613930,22,35.6,103.21,34.02,8.43
434,kralendijk,92,BQ,1547610900,78,12.15,-68.27,77.0,10.29
435,caohai,0,CN,1547613930,85,26.87,104.28,37.8,4.18
436,trincomalee,56,LK,1547613930,79,8.58,81.23,81.72,12.24
437,saint-georges,76,CA,1547613707,81,46.12,-70.67,14.4,4.97
438,north platte,1,US,1547610780,70,41.12,-100.77,26.06,4.7
439,businga,76,CD,1547613931,92,3.34,20.89,72.09,3.85
440,tilichiki,24,RU,1547613736,37,60.47,166.1,-24.93,6.31
441,te anau,20,NZ,1547613754,38,-45.41,167.72,69.48,11.68
442,toamasina,40,MG,1547611200,94,-18.17,49.38,75.2,3.36
443,visnes,92,NO,1547612400,93,59.36,5.22,46.4,19.46
444,matara,48,PE,1547613569,100,-13.74,-72.9,41.58,1.72
445,nuevitas,20,CU,1547610660,94,21.55,-77.27,69.8,3.36
446,przhevalskoye,44,RU,1547613933,84,55.51,31.85,15.21,7.99
447,bubaque,0,GW,1547613300,100,11.28,-15.83,77.67,8.88
448,karratha,0,AU,1547613717,24,-20.74,116.85,105.57,8.32
449,sobolevo,0,RU,1547613772,67,54.43,31.9,9.72,3.06
450,quilmana,24,PE,1547613933,100,-12.95,-76.38,62.1,2.95
451,palmer,1,US,1547611080,91,61.6,-149.11,19.04,3.4
452,atagay,24,RU,1547613934,50,55.1,99.39,7.83,2.73
453,diamantino,12,BR,1547613678,90,-14.4,-56.44,72.36,6.42
454,xiongzhou,0,CN,1547611200,59,32.34,118.83,37.4,2.24
455,chishtian mandi,88,PK,1547613934,90,29.8,72.87,58.86,4.63
456,buraydah,40,SA,1547611200,87,26.33,43.97,51.8,3.36
457,poya,12,NC,1547613935,96,-21.35,165.16,77.94,19.51
458,taltal,12,CL,1547613935,100,-25.41,-70.49,52.65,1.61
459,moranbah,0,AU,1547613935,31,-22.0,148.04,94.95,12.35
460,brae,92,GB,1547612400,100,60.4,-1.35,46.4,21.92
461,yar-sale,64,RU,1547613774,88,66.83,70.83,4.23,8.66
462,sangmelima,48,CM,1547613936,95,2.93,11.98,68.85,2.51
463,galesong,40,ID,1547611200,94,-5.32,119.37,78.8,4.7
464,monrovia,75,LR,1547611200,94,6.33,-10.8,75.2,3.4
465,san rafael,0,AR,1547613770,44,-34.61,-68.33,54.54,4.85
466,grindavik,20,IS,1547611200,73,63.84,-22.43,26.6,19.46
467,biak,36,ID,1547613937,81,-0.91,122.88,84.24,6.76
468,lamu,80,ID,1547613937,86,0.57,122.3,80.19,3.96
469,chara,20,GR,1547612400,59,39.42,22.43,33.8,16.11
470,chumphon,20,TH,1547611200,66,10.5,99.18,87.8,4.7
471,malibu,90,US,1547613300,76,33.61,-84.48,33.8,6.93
472,severobaykalsk,20,RU,1547613938,66,55.65,109.32,-2.88,2.06
473,basco,90,US,1547613300,96,40.33,-91.2,33.98,10.29
474,hualmay,100,PE,1547613939,95,-11.1,-77.61,67.86,5.97
475,qasigiannguit,56,GL,1547610600,72,68.82,-51.19,10.4,2.24
476,morehead,90,US,1547613300,84,38.18,-83.43,32.0,8.05
477,dong hoi,92,VN,1547613939,100,17.48,106.6,66.78,19.06
478,hervey bay,8,AU,1547611200,40,-25.3,152.85,87.8,11.41
479,chapais,90,CA,1547611200,84,49.78,-74.86,5.0,11.41
480,nantucket,1,US,1547613300,92,41.28,-70.1,23.0,4.74
481,mahmudabad,0,IR,1547611200,75,36.63,52.26,44.6,4.7
482,talara,44,PE,1547613641,81,-4.58,-81.27,73.26,6.98
483,kavaratti,0,IN,1547613509,100,10.57,72.64,82.89,7.43
484,sattahip,20,TH,1547611200,66,12.67,100.9,84.2,4.7
485,mogadishu,75,SO,1547611200,69,2.04,45.34,77.0,9.17
486,conway,1,US,1547612100,93,35.09,-92.44,39.02,4.74
487,antalaha,88,MG,1547613941,100,-14.9,50.28,75.06,5.75
488,los llanos de aridane,8,ES,1547611200,63,28.66,-17.92,60.8,9.17
489,macapa,88,BR,1547613942,100,0.05,-51.07,76.77,7.09
490,manicore,64,BR,1547613942,94,-5.81,-61.3,75.06,1.95
491,cairns,0,AU,1547611200,58,-16.92,145.77,87.8,19.46
492,sonoita,75,US,1547612700,62,31.68,-110.66,57.02,10.29
493,alice springs,0,AU,1547611200,9,-23.7,133.88,107.6,13.87
494,namibe,88,AO,1547613598,100,-15.19,12.15,72.0,2.06
495,comodoro rivadavia,0,AR,1547611200,33,-45.87,-67.48,62.6,16.11
496,sassandra,32,CI,1547613801,100,4.95,-6.09,82.26,10.22
497,santa clarita,90,US,1547612220,85,34.39,-118.54,60.08,6.93
498,quatre cocos,40,MU,1547611200,78,-20.21,57.76,80.6,4.7
499,samarai,68,PG,1547613685,100,-10.62,150.67,81.09,16.26
500,alibag,0,IN,1547611200,44,18.64,72.88,80.6,3.36
501,benicarlo,20,ES,1547613945,100,40.42,0.43,55.35,12.68
502,harper,90,US,1547613300,90,30.3,-99.24,48.92,9.78
503,alice town,12,BS,1547613946,100,25.72,-79.3,71.1,8.77
504,ellensburg,90,US,1547611080,74,47.0,-120.55,30.92,2.39
505,kurilsk,36,RU,1547613684,100,45.23,147.88,28.44,23.42
506,richards bay,100,ZA,1547613771,100,-28.77,32.06,71.73,14.14
507,moron,80,VE,1547613591,95,10.49,-68.2,65.52,2.84
508,tezu,0,IN,1547613636,35,27.93,96.16,60.57,0.72
509,zhigansk,12,RU,1547613619,0,66.77,123.37,-40.41,5.97
510,marmande,0,FR,1547611200,100,44.5,0.16,26.6,3.36
511,praia,0,BR,1547611200,69,-20.25,-43.81,73.4,6.93
512,itarema,92,BR,1547613453,100,-2.92,-39.92,74.16,3.06
513,sterling,1,US,1547613420,85,39.0,-77.4,26.96,2.73
514,aldan,8,RU,1547613948,0,58.61,125.39,-32.85,3.4
515,kovdor,76,RU,1547613949,76,67.56,30.47,8.73,3.18
516,kalawit,20,PH,1547613949,57,7.91,122.53,85.86,12.35
517,erenhot,0,CN,1547613949,29,43.65,111.97,18.81,14.7
518,nhulunbuy,75,AU,1547611200,62,-12.18,136.78,87.8,5.82
519,santa fe,8,AR,1547613950,92,-31.62,-60.7,67.23,2.73
520,bosaso,40,SO,1547611200,73,11.28,49.18,75.2,5.53
521,rafai,64,CF,1547613950,100,4.95,23.92,69.12,3.18
522,ozernovskiy,36,RU,1547613951,96,51.5,156.52,21.69,10.78
523,bani walid,64,LY,1547613951,73,31.76,14.0,36.63,2.84
524,concepcion del uruguay,32,AR,1547613951,95,-32.48,-58.24,67.14,6.98
525,aranos,0,NA,1547613952,62,-24.14,19.11,70.29,3.06
526,liwale,44,TZ,1547613952,96,-9.8,37.92,73.8,3.18
527,srednekolymsk,24,RU,1547613952,0,67.46,153.71,-32.94,2.51
528,yazman,20,SY,1547613953,96,36.74,38.46,40.68,13.24
529,namanga,88,KE,1547613953,100,-2.55,36.79,63.09,3.96
530,chinchani,0,IN,1547611200,43,16.42,74.53,71.6,6.93
531,dryden,40,CA,1547611200,70,49.79,-92.84,-4.01,8.05
532,havre-saint-pierre,40,CA,1547611200,64,50.23,-63.6,-0.41,10.29
533,sevierville,90,US,1547612100,74,35.87,-83.56,35.6,4.97
534,impfondo,44,CD,1547613955,97,1.62,18.06,70.56,2.17
535,gushikawa,75,JP,1547613000,87,26.35,127.87,60.8,11.41
536,qaqortoq,88,GL,1547610600,79,60.72,-46.03,26.6,3.36
537,norrtalje,0,SE,1547612400,84,59.76,18.7,14.0,2.95
538,bellevue,20,US,1547612100,79,47.61,-122.19,42.98,3.62
539,sechura,44,PE,1547613958,84,-5.56,-80.82,73.44,10.67
540,nelson bay,0,AU,1547611200,46,-32.72,152.14,93.2,10.29
541,ponta delgada,20,PT,1547611200,87,37.73,-25.67,57.2,9.55
542,san cristobal,90,EC,1547611200,100,-0.39,-78.55,55.4,4.7
543,chengzihe,64,CN,1547613959,43,45.35,131.0,11.52,10.0
544,jinchang,0,CN,1547613959,84,38.52,102.19,21.69,1.61
545,san andres,64,PH,1547613777,96,13.32,122.68,80.46,20.29
546,timra,0,SE,1547612400,84,62.49,17.33,6.8,2.24
547,zyryanskoye,68,RU,1547613960,73,56.83,86.62,12.42,3.06
548,warrnambool,80,AU,1547613680,79,-38.38,142.48,69.66,8.66
549,kloulklubed,75,PW,1547610600,74,7.04,134.26,84.2,14.99
550,soligalich,64,RU,1547613960,85,59.08,42.29,21.24,13.13
551,beira,92,ES,1547611200,76,43.2,-8.36,51.8,3.36
552,porecatu,0,BR,1547611200,73,-22.75,-51.38,78.8,3.36
553,isiolo,100,KE,1547613961,89,0.35,37.58,71.19,3.62
554,beyneu,76,KZ,1547613962,98,45.32,55.19,26.46,18.5
555,luang prabang,88,LA,1547613962,91,19.89,102.14,66.24,2.28
556,gangapur,0,IN,1547613963,55,19.7,75.01,77.31,5.08
