City_ID,City,Cloudiness,Country,Date,Humidity,Lat,Lng,Max Temp,Wind Speed
0,rikitea,68,PF,1547595286,99,-23.12,-134.97,80.05,13.67
1,jamestown,12,AU,1547595145,43,-33.21,138.6,90.17,7.74
2,busselton,12,AU,1547595286,100,-33.64,115.35,63.49,10.65
3,mahebourg,40,MU,1547593200,78,-20.41,57.7,78.8,3.36
4,haines junction,92,CA,1547595058,79,60.75,-137.51,1.61,2.37
5,los llanos de aridane,20,ES,1547593200,63,28.66,-17.92,62.6,8.05
6,pangody,80,RU,1547595763,86,65.85,74.49,4.76,11.43
7,bluff,0,AU,1547595295,51,-23.58,149.07,85.22,6.17
8,takoradi,8,GH,1547595287,100,4.89,-1.75,82.12,8.19
9,turukhansk,88,RU,1547595367,81,65.8,87.96,11.69,15.01
10,ushuaia,75,AR,1547593200,87,-54.81,-68.31,48.2,23.04
11,naze,8,NG,1547593200,94,5.43,7.07,78.8,4.16
12,mataura,80,NZ,1547595286,62,-46.19,168.86,71.86,8.41
13,sao sebastiao,0,BR,1547595763,71,-3.15,-58.36,82.39,6.06
14,katobu,20,ID,1547595763,98,-4.94,122.53,82.57,4.16
15,rawson,80,AR,1547595291,17,-43.3,-65.11,82.57,16.8
16,thompson,5,CA,1547593200,68,55.74,-97.86,-18.41,4.7
17,atuona,44,PF,1547595292,100,-9.8,-139.03,80.77,18.03
18,lorengau,48,PG,1547595226,98,-2.02,147.27,83.74,10.65
19,alwar,0,IN,1547595763,73,27.56,76.61,38.92,2.59
20,vaini,0,IN,1547595301,76,15.34,74.49,58.18,3.15
21,hermanus,0,ZA,1547595289,93,-34.42,19.24,58.0,6.17
22,lebu,0,ET,1547595289,76,8.96,38.73,34.82,2.48
23,bredasdorp,80,ZA,1547593200,73,-34.53,20.04,69.8,12.75
24,lebork,75,PL,1547595000,86,54.54,17.75,33.8,21.92
25,khatanga,48,RU,1547595292,66,71.98,102.47,-14.82,12.66
26,umm lajj,0,SA,1547595764,100,25.02,37.27,53.99,4.16
27,cabo san lucas,75,MX,1547592360,69,22.89,-109.91,75.2,10.29
28,souillac,0,FR,1547593200,75,45.6,-0.6,35.6,2.24
29,provideniya,90,RU,1547593200,94,64.42,-173.23,32.0,17.9
30,hobart,75,AU,1547593200,59,-42.88,147.33,64.4,13.87
31,mehamn,0,NO,1547592600,73,71.03,27.85,26.6,6.93
32,nikolskoye,75,RU,1547593200,85,59.7,30.79,24.8,6.71
33,albany,90,US,1547593080,68,42.65,-73.75,30.02,2.48
34,kapaa,1,US,1547592960,47,22.08,-159.32,80.96,6.93
35,cururupu,8,BR,1547595764,93,-1.82,-44.87,77.17,5.95
36,tautira,20,PF,1547595000,70,-17.73,-149.15,87.8,12.75
37,bandarbeyla,92,SO,1547595320,100,9.49,50.81,74.42,9.98
38,fairbanks,1,US,1547593080,82,64.84,-147.72,-7.97,3.27
39,tuktoyaktuk,75,CA,1547593200,75,69.44,-133.03,-18.41,13.87
40,arraial do cabo,20,BR,1547589600,74,-22.97,-42.02,80.6,14.99
41,punta arenas,75,CL,1547593200,61,-53.16,-70.91,50.0,34.45
42,sao joao da barra,0,BR,1547589600,74,-21.64,-41.05,82.4,13.87
43,mar del plata,0,AR,1547595151,30,-46.43,-67.52,69.47,22.73
44,saskylakh,8,RU,1547595304,66,71.97,114.09,-35.25,16.02
45,barrow,0,AR,1547595286,43,-38.31,-60.23,78.79,10.09
46,poum,0,MK,1547595765,69,41.28,20.71,7.01,2.26
47,ketchikan,1,US,1547593200,95,55.34,-131.65,41.0,5.82
48,east london,88,ZA,1547595162,100,-33.02,27.91,72.85,4.61
49,ilulissat,40,GL,1547592600,77,69.22,-51.1,5.0,5.82
50,bambous virieux,40,MU,1547593200,78,-20.34,57.76,78.8,3.36
51,sao jose da coroa grande,80,BR,1547595333,96,-8.9,-35.15,75.77,6.62
52,finnsnes,92,NO,1547594400,92,69.23,17.98,24.8,10.29
53,marrakesh,0,MA,1547593200,76,31.63,-7.99,48.2,1.12
54,grand gaube,40,MU,1547593200,78,-20.01,57.66,78.8,3.36
55,lompoc,90,US,1547594100,86,34.64,-120.46,55.94,14.99
56,georgetown,40,GY,1547593200,83,6.8,-58.16,80.6,11.41
57,praia da vitoria,20,PT,1547593200,93,38.73,-27.07,55.4,8.75
58,catio,0,GW,1547595766,88,11.28,-15.25,74.11,6.96
59,klaksvik,92,FO,1547592600,74,62.23,-6.59,37.4,4.7
60,marsh harbour,0,BS,1547595704,100,26.54,-77.06,71.05,13.44
61,tasiilaq,0,GL,1547592600,46,65.61,-37.64,8.6,2.24
62,tuatapere,92,NZ,1547595334,71,-46.13,167.69,66.19,6.06
63,kidal,0,ML,1547595766,38,18.44,1.41,48.19,3.6
64,natal,40,BR,1547593200,69,-5.81,-35.21,82.4,9.17
65,thinadhoo,88,MV,1547595265,100,0.53,72.93,78.25,1.59
66,sorland,32,NO,1547595766,100,67.67,12.69,31.09,2.04
67,cape town,0,ZA,1547593200,72,-33.93,18.42,64.4,3.36
68,constantine,20,DZ,1547593200,93,36.36,6.61,37.4,3.36
69,paka,0,HR,1547593200,69,45.29,18.06,33.8,10.29
70,belyy yar,32,RU,1547593200,75,53.6,91.39,-18.41,2.48
71,qaqortoq,88,GL,1547596200,80,60.72,-46.03,30.2,2.24
72,winnemucca,1,US,1547592960,67,40.97,-117.74,41.0,16.11
73,pimentel,76,BR,1547595767,99,-3.7,-45.5,73.07,5.17
74,qaanaaq,0,GL,1547595291,100,77.48,-69.36,-31.47,9.64
75,popondetta,8,PG,1547595292,79,-8.77,148.24,78.47,0.92
76,pedernales,76,EC,1547595767,90,0.07,-80.05,75.32,5.39
77,paamiut,80,GL,1547595767,100,61.99,-49.67,29.74,30.78
78,chuy,48,UY,1547595286,99,-33.69,-53.46,71.05,10.65
79,jinja,76,UG,1547595768,97,0.44,33.21,64.07,7.29
80,vaitape,88,PF,1547595768,97,-16.52,-151.75,84.41,13.67
81,havelock,1,US,1547593080,67,34.88,-76.9,42.08,4.7
82,yulara,0,AU,1547593200,14,-25.24,130.99,100.4,18.34
83,lavrentiya,88,RU,1547595293,94,65.58,-170.99,33.56,18.81
84,vanimo,68,PG,1547595355,98,-2.67,141.3,83.69,13.67
85,akhalgori,0,GE,1547593200,65,42.13,44.48,41.0,8.05
86,astana,90,KZ,1547593200,100,51.13,71.43,14.0,8.95
87,new norfolk,75,AU,1547593200,59,-42.78,147.06,64.4,13.87
88,sitka,0,US,1547595300,83,37.17,-99.65,42.92,1.14
89,chokurdakh,8,RU,1547595213,0,70.62,147.9,-43.08,3.27
90,cockburn town,0,TC,1547595017,100,21.46,-71.14,78.56,4.72
91,cartagena del chaira,24,CO,1547595769,93,1.33,-74.84,73.79,2.37
92,poya,0,NC,1547595371,98,-21.35,165.16,77.57,14.56
93,chapais,90,CA,1547593200,77,49.78,-74.86,-2.21,5.82
94,ancud,90,CL,1547593200,71,-41.87,-73.83,55.4,10.29
95,cabedelo,75,BR,1547593200,83,-6.97,-34.84,78.8,6.93
96,avarua,40,CK,1547593200,66,-21.21,-159.78,86.0,10.29
97,ponta do sol,36,BR,1547595136,73,-20.63,-46.0,72.26,1.81
98,hilo,40,US,1547592780,50,19.71,-155.08,78.98,9.17
99,itarema,100,BR,1547595769,97,-2.92,-39.92,75.01,4.38
100,nemuro,0,JP,1547595303,100,43.32,145.57,32.66,24.29
101,petropavlovsk-kamchatskiy,0,RU,1547593200,77,53.05,158.65,-2.21,8.95
102,puerto ayora,0,EC,1547593200,66,-0.74,-90.35,84.2,16.11
103,hasaki,20,JP,1547593200,100,35.73,140.83,35.6,5.82
104,qujing,92,CN,1547595770,98,25.49,103.8,32.98,2.93
105,fort nelson,92,CA,1547595180,76,58.81,-122.69,-0.73,3.04
106,samana,0,EC,1547593200,69,0.12,-76.97,82.4,4.7
107,nome,90,US,1547594100,60,30.04,-94.42,51.08,3.6
108,yarke pole,92,UA,1547595770,96,45.61,34.32,28.16,15.46
109,namatanai,8,PG,1547595770,95,-3.66,152.44,85.31,7.96
110,codrington,0,AU,1547593200,48,-28.95,153.24,84.2,6.93
111,tiksi,8,RU,1547595302,0,71.64,128.87,-45.96,3.15
112,cherskiy,80,RU,1547595290,47,68.75,161.3,-28.95,3.38
113,norman wells,75,CA,1547593200,76,65.28,-126.83,-9.41,4.7
114,tupancireta,44,BR,1547595771,82,-29.08,-53.84,78.56,6.4
115,bautista,20,PH,1547593200,73,14.0,121.28,77.0,4.7
116,port lincoln,64,AU,1547595289,76,-34.72,135.86,74.29,8.19
117,san quintin,0,PH,1547595209,79,17.54,120.52,68.26,3.6
118,asyut,0,EG,1547595771,55,27.18,31.19,37.34,6.96
119,yellowknife,75,CA,1547593200,68,62.45,-114.38,-16.61,4.7
120,suntar,0,RU,1547595771,0,62.16,117.65,-45.46,5.39
121,port elizabeth,1,US,1547592960,68,39.31,-74.98,33.98,3.36
122,saldanha,20,PT,1547595319,77,41.42,-6.55,24.97,1.59
123,caravelas,36,BR,1547595347,100,-17.73,-39.27,80.68,14.9
124,pascagoula,1,US,1547594100,58,30.37,-88.56,50.0,3.15
125,xuddur,8,SO,1547595772,60,4.12,43.89,68.21,10.98
126,rapid valley,1,US,1547594100,62,44.06,-103.15,37.22,4.7
127,amapa,75,HN,1547593200,83,15.09,-87.97,75.2,9.17
128,hithadhoo,32,MV,1547595293,100,-0.6,73.08,80.27,1.7
129,butaritari,64,KI,1547595130,100,3.07,172.79,83.96,18.48
130,severo-kurilsk,64,RU,1547595327,100,50.68,156.12,24.97,9.42
131,nanortalik,88,GL,1547596200,80,60.14,-45.24,30.2,2.24
132,bethel,90,US,1547592960,78,60.79,-161.76,37.94,10.29
133,rio casca,12,BR,1547595772,75,-20.23,-42.65,73.48,3.71
134,baherden,0,TM,1547595772,76,38.44,57.43,36.4,1.92
135,gat,0,SN,1547593200,72,14.69,-16.54,75.2,16.11
136,sioux lookout,90,CA,1547593200,71,50.1,-91.92,3.2,12.75
137,usinsk,88,RU,1547595182,87,66.0,57.56,16.19,8.63
138,egvekinot,80,RU,1547595773,85,66.32,-179.17,-3.66,3.6
139,kutum,0,SD,1547595773,70,14.2,24.66,53.86,6.85
140,masallatah,0,LY,1547595773,76,32.62,14.0,36.67,3.71
141,sabang,36,PH,1547595773,88,13.72,123.58,77.53,16.58
142,isangel,92,VU,1547595331,100,-19.55,169.27,79.01,12.77
143,port blair,24,IN,1547595360,100,11.67,92.75,81.4,16.8
144,upernavik,68,GL,1547595300,100,72.79,-56.15,-6.18,10.42
145,vila velha,75,BR,1547593200,83,-3.71,-38.6,80.6,5.82
146,bitung,40,ID,1547593200,100,1.44,125.19,75.2,2.24
147,valera,12,VE,1547595774,82,9.31,-70.61,78.16,3.71
148,hukuntsi,36,BW,1547595362,73,-23.98,21.76,67.63,3.38
149,sigulda,40,LV,1547594400,86,57.15,24.86,30.2,9.17
150,grindavik,20,IS,1547593200,74,63.84,-22.43,32.0,16.11
151,hofn,80,IS,1547595343,100,64.25,-15.21,29.56,25.19
152,rio gallegos,40,AR,1547593200,38,-51.62,-69.22,59.0,27.51
153,zhigansk,8,RU,1547595315,0,66.77,123.37,-42.81,3.6
154,saint george,20,GR,1547592600,40,39.45,22.34,33.8,11.41
155,coquimbo,75,CL,1547593200,82,-29.95,-71.34,62.6,11.41
156,seddon,0,NZ,1547595775,76,-41.67,174.07,64.34,9.64
157,hami,24,CN,1547595775,59,42.84,93.51,0.44,2.15
158,carnarvon,0,ZA,1547595013,44,-30.97,22.13,58.81,7.96
159,lufilufi,48,WS,1547595775,97,-13.87,-171.6,85.63,14.23
160,salisbury,92,GB,1547592600,93,51.07,-1.8,48.2,11.41
161,victoria,75,BN,1547593200,94,5.28,115.24,77.0,3.36
162,constitucion,90,MX,1547592420,33,23.99,-104.67,62.6,10.29
163,mathathane,44,BW,1547595775,99,-22.27,28.75,68.71,3.38
164,aklavik,90,CA,1547593200,68,68.22,-135.01,-13.01,10.29
165,savannakhet,24,TH,1547595776,73,16.57,104.76,71.86,9.64
166,agde,0,FR,1547593200,86,43.31,3.47,39.2,1.12
167,kamphaeng phet,32,TH,1547595776,97,16.47,99.53,67.67,6.62
168,ludvika,0,SE,1547594400,100,60.15,15.18,12.2,8.05
169,kangaatsiaq,56,GL,1547595312,100,68.31,-53.46,3.91,8.52
170,salinopolis,0,BR,1547595776,100,-0.61,-47.36,79.37,8.19
171,mount pleasant,75,US,1547594100,64,33.16,-94.97,47.84,4.72
172,fortuna,75,ES,1547593200,81,38.18,-1.13,53.6,2.24
173,aqtobe,0,KZ,1547593200,84,50.28,57.21,1.4,4.47
174,jalu,20,LY,1547595777,82,29.03,21.55,51.29,7.52
175,dikson,64,RU,1547595294,100,73.51,80.55,8.54,6.96
176,saint-philippe,90,CA,1547594100,92,45.36,-73.48,24.8,9.17
177,iqaluit,90,CA,1547593200,76,63.75,-68.52,-4.01,5.82
178,labuhan,92,ID,1547595310,98,-2.54,115.51,71.23,0.69
179,tezu,0,IN,1547595373,47,27.93,96.16,45.22,2.04
180,simi,90,US,1547594820,89,38.64,-122.87,51.08,6.93
181,ambon,0,FR,1547593200,93,47.55,-2.56,44.6,8.41
182,camacha,75,PT,1547593200,63,33.08,-16.33,60.8,8.05
183,tura,0,IN,1547595357,76,25.52,90.21,44.23,2.59
184,zabid,0,YE,1547595778,39,14.2,44.5,33.25,1.59
185,muriti,92,TZ,1547595778,100,-1.99,32.93,67.72,7.96
186,vestmanna,92,FO,1547592600,74,62.16,-7.17,37.4,4.7
187,ilanskiy,32,RU,1547595778,41,56.24,96.06,-5.41,6.62
188,victor harbor,0,AU,1547593200,28,-35.55,138.62,84.2,9.17
189,tonantins,44,BR,1547595778,93,-2.86,-67.77,77.26,2.26
190,novoagansk,76,RU,1547595779,80,61.94,76.66,8.54,6.29
191,berdigestyakh,8,RU,1547595779,86,62.1,126.7,-40.2,4.5
192,college,1,US,1547593080,82,64.86,-147.8,1.04,3.27
193,mastic beach,1,US,1547592960,65,40.77,-72.85,32.0,3.36
194,port alfred,88,ZA,1547595305,100,-33.59,26.89,69.29,4.38
195,nishihara,1,JP,1547593200,78,35.74,139.53,46.4,8.05
196,margate,75,AU,1547593200,59,-43.03,147.26,64.4,13.87
197,wanning,75,AT,1547594400,65,48.64,13.53,41.0,20.8
198,san pedro,0,AR,1547595780,88,-33.68,-59.66,70.06,8.63
199,blacksburg,90,US,1547594100,85,37.23,-80.41,33.08,6.93
200,rampura,0,IN,1547595781,100,24.47,75.44,45.58,3.15
201,gumdag,0,TM,1547595781,73,39.2,54.59,35.81,6.51
202,kanbe,40,MM,1547593200,88,16.71,96.0,68.0,3.36
203,karratha,44,AU,1547595175,54,-20.74,116.85,86.08,4.94
204,anadyr,90,RU,1547593200,76,64.73,177.51,-4.01,15.66
205,waitara,0,NZ,1547595784,89,-39.0,174.24,67.09,19.82
206,longyearbyen,20,NO,1547592600,70,78.22,15.63,1.4,4.7
207,fonte boa,12,BR,1547595785,96,-2.51,-66.09,75.14,2.93
208,calmar,90,CA,1547594160,85,53.27,-113.81,17.6,10.29
209,puerto madryn,24,AR,1547595785,49,-42.77,-65.04,74.51,9.64
210,vila franca do campo,40,PT,1547593200,77,37.72,-25.43,59.0,4.7
211,nguruka,64,TZ,1547595785,99,-5.11,31.04,63.17,2.48
212,bavly,88,RU,1547595786,92,54.4,53.24,22.67,14.23
213,touros,75,BR,1547593200,78,-5.2,-35.46,80.6,10.29
214,tari,0,NG,1547595786,31,12.41,4.49,60.7,6.73
215,pisco,0,PE,1547593200,30,-13.71,-76.2,71.6,19.46
216,hauterive,0,FR,1547593200,89,46.09,3.45,32.0,12.75
217,boddam,88,GB,1547594400,81,57.47,-1.78,46.4,14.99
218,el cobre,40,CU,1547592780,69,20.05,-75.95,77.0,10.29
219,kepno,92,PL,1547595749,92,51.28,17.99,38.47,26.87
220,mount isa,40,AU,1547593200,43,-20.73,139.49,91.4,9.17
221,westport,92,IE,1547595787,100,53.8,-9.52,45.4,19.15
222,chotila,0,IN,1547595787,73,22.42,71.2,50.17,6.62
223,monte alegre,24,BR,1547595787,92,-2.0,-54.07,75.46,3.27
224,sao marcos,24,BR,1547595788,95,-28.97,-51.07,70.19,3.04
225,kodiak,90,US,1547593380,100,39.95,-94.76,33.08,11.41
226,leningradskiy,92,RU,1547595352,94,69.38,178.42,-1.68,24.85
227,yunyang,36,CN,1547595788,70,32.84,110.81,14.71,2.37
228,luderitz,0,NA,1547595320,57,-26.65,15.16,67.0,19.71
229,noumea,20,NC,1547593200,48,-22.28,166.46,86.0,4.7
230,diu,0,IN,1547595788,75,20.71,70.98,52.15,2.93
231,ponta pora,12,BR,1547595788,82,-22.54,-55.73,79.24,3.71
232,faanui,48,PF,1547595314,99,-16.48,-151.75,84.59,13.44
233,dingle,48,PH,1547595368,79,11.0,122.67,76.09,16.02
234,luanda,75,AO,1547593200,78,-8.83,13.24,78.8,3.36
235,itigi,88,TZ,1547595789,96,-5.7,34.5,62.5,5.73
236,hereford,92,GB,1547595789,91,52.06,-2.72,46.66,14.67
237,kholtoson,0,RU,1547595789,39,50.3,103.31,-28.54,2.59
238,huarmey,80,PE,1547595789,69,-10.07,-78.15,72.62,4.61
239,ahipara,44,NZ,1547595346,76,-35.17,173.16,70.69,17.02
240,libohove,20,AL,1547594400,75,40.03,20.26,44.6,10.29
241,mattru,0,SL,1547595790,70,7.62,-11.83,80.14,6.96
242,zeya,12,RU,1547595790,50,53.74,127.27,-18.28,8.41
243,dire,0,ET,1547595790,76,9.18,38.92,34.82,2.48
244,brae,92,GB,1547594400,100,60.4,-1.35,42.8,17.22
245,dillon,90,US,1547592780,52,45.22,-112.64,26.06,2.71
246,kontagora,0,NG,1547595368,31,10.4,5.47,71.27,9.53
247,hirara,75,JP,1547593200,93,24.8,125.28,66.2,6.93
248,lekoni,92,GA,1547595791,99,-1.58,14.26,68.26,4.05
249,new milford,1,US,1547594100,47,40.94,-74.02,35.96,2.71
250,portland,75,US,1547592960,55,45.52,-122.67,46.04,16.11
251,chenzhou,92,CN,1547595791,100,25.81,113.03,35.23,7.18
252,ust-maya,56,RU,1547595791,64,60.42,134.54,-35.07,7.18
253,arrifes,40,PT,1547593200,77,37.77,-25.7,59.0,4.7
254,san andres,0,PH,1547595308,100,13.32,122.68,78.74,20.04
255,sistranda,40,NO,1547592600,92,63.73,8.83,24.8,6.93
256,inverell,0,AU,1547595792,67,-29.78,151.11,81.04,3.71
257,la garriga,0,ES,1547593200,93,41.68,2.29,44.6,2.24
258,pochutla,20,MX,1547592300,62,15.74,-96.47,84.2,11.41
259,le port,0,FR,1547595305,64,42.87,1.37,13.0,1.48
260,wexford,90,US,1547592960,77,40.63,-80.06,28.4,9.17
261,moose factory,90,CA,1547593200,85,51.26,-80.61,10.4,10.29
262,libenge,32,CD,1547595793,90,3.65,18.64,70.06,3.27
263,castro,90,CL,1547593200,71,-42.48,-73.76,55.4,10.29
264,zyryanovsk,88,KZ,1547595793,71,49.74,84.27,11.24,2.04
265,zhicheng,0,CN,1547595793,77,35.04,112.59,11.47,2.48
266,aleksandrov gay,92,RU,1547595793,94,50.14,48.57,29.56,14.56
267,chilca,75,PE,1547593200,44,-13.22,-72.34,60.8,1.59
268,xining,0,CN,1547595793,60,36.62,101.77,-1.81,6.29
269,kungurtug,0,RU,1547595327,35,50.6,97.53,-27.91,2.48
270,bandar-e lengeh,24,IR,1547595794,100,26.56,54.88,71.14,5.06
271,port hardy,20,CA,1547593200,65,50.7,-127.42,46.4,10.29
272,pangnirtung,90,CA,1547593200,70,66.15,-65.72,-4.01,8.05
273,beidao,20,CN,1547595794,75,34.57,105.89,8.05,3.71
274,uvarovo,88,RU,1547595794,93,51.99,42.26,26.09,6.96
275,conceicao do araguaia,68,BR,1547595794,88,-8.26,-49.26,77.89,2.59
276,jawhar,0,IN,1547595794,89,19.91,73.23,56.47,3.15
277,giyani,92,ZA,1547595794,90,-23.32,30.73,74.24,4.16
278,mabaruma,88,GY,1547595794,89,8.2,-59.78,76.9,6.85
279,alice springs,0,AU,1547593200,15,-23.7,133.88,96.8,14.99
280,maragogi,80,BR,1547595713,96,-9.01,-35.22,75.77,6.62
281,san patricio,36,PY,1547595354,97,-26.98,-56.83,76.67,2.26
282,peniche,75,PT,1547591400,87,39.36,-9.38,51.8,1.12
283,potosi,68,BO,1547595795,100,-19.59,-65.75,42.74,2.26
284,barcelona,0,ES,1547593200,87,41.38,2.18,44.6,8.05
285,bundaberg,75,AU,1547593200,54,-24.87,152.35,84.2,6.93
286,vostok,24,RU,1547595185,68,46.45,135.83,-10.63,3.04
287,lakselv,44,NO,1547594400,84,70.05,24.96,8.6,1.12
288,walvis bay,20,NA,1547593200,77,-22.95,14.51,68.0,16.11
289,novoselitskoye,90,RU,1547593200,100,44.75,43.44,28.4,4.47
290,hamilton,90,CA,1547594340,92,43.26,-79.87,30.2,16.11
291,berlevag,0,NO,1547592600,73,70.86,29.09,21.2,6.93
292,clyde river,75,CA,1547593200,73,70.47,-68.59,-29.21,8.05
293,ribeira grande,0,PT,1547595262,97,38.52,-28.7,62.05,7.52
294,garden city,1,US,1547594100,47,40.73,-73.63,35.96,2.71
295,tchibanga,56,GA,1547595796,99,-2.92,11.0,73.75,2.37
296,iracoubo,92,GF,1547595797,83,5.48,-53.21,77.98,5.73
297,mercedes,56,UY,1547595715,94,-33.25,-58.03,70.06,15.68
298,monterrey,90,MX,1547592000,93,25.67,-100.32,51.8,4.38
299,tabou,0,CI,1547595797,99,4.42,-7.36,83.02,9.64
300,katsuura,75,JP,1547593200,61,33.93,134.5,46.4,13.87
301,mount gambier,32,AU,1547593200,64,-37.83,140.78,73.4,5.82
302,avera,90,US,1547594100,69,33.19,-82.53,47.48,2.71
303,bilibino,68,RU,1547595348,67,68.06,166.44,-36.28,3.04
304,shubarshi,0,KZ,1547595797,57,48.59,57.19,2.51,5.73
305,atar,36,MR,1547595330,24,20.52,-13.05,55.97,3.94
306,adana,75,TR,1547594400,93,37.0,35.33,50.0,6.93
307,kaitangata,44,NZ,1547595305,81,-46.28,169.85,72.13,3.71
308,mazabuka,92,ZM,1547595798,98,-15.86,27.75,65.87,5.84
309,mogadishu,0,SO,1547595798,100,2.04,45.34,78.56,18.37
310,birao,8,CF,1547595798,60,10.3,22.78,63.26,4.94
311,kamennogorsk,90,RU,1547594400,92,60.95,29.13,21.2,8.05
312,norheimsund,75,NO,1547592600,93,60.37,6.14,35.6,11.41
313,nara,75,JP,1547593200,75,34.68,135.8,46.4,2.24
314,tibiri,0,NE,1547595798,35,13.59,7.06,54.94,10.31
315,pacific grove,90,US,1547594100,86,36.62,-121.92,57.2,17.02
316,fukue,75,JP,1547593200,70,35.03,136.69,46.4,26.4
317,ponta delgada,40,PT,1547593200,77,37.73,-25.67,59.0,4.7
318,coahuayana,0,MX,1547595799,33,18.62,-100.35,76.94,2.15
319,meadow lake,40,CA,1547593200,76,54.13,-108.44,-9.41,4.7
320,tocopilla,0,CL,1547595729,92,-22.09,-70.2,64.48,3.71
321,ostrovnoy,76,RU,1547595323,79,68.05,39.51,9.76,4.05
322,sisimiut,80,GL,1547595799,100,66.94,-53.67,-5.68,1.7
323,amurzet,64,CN,1547595799,61,47.69,131.09,1.21,9.86
324,tagusao,48,PH,1547595799,90,9.19,117.81,78.79,9.86
325,rundu,32,NA,1547595800,81,-17.91,19.77,70.06,4.5
326,hambantota,32,LK,1547595341,100,6.12,81.12,77.21,12.33
327,geraldton,90,CA,1547593200,79,49.72,-86.95,23.0,9.17
328,san rafael,0,AR,1547595800,26,-34.61,-68.33,75.32,3.6
329,evansville,90,US,1547594160,85,37.97,-87.56,37.94,9.17
330,shelburne,90,CA,1547594340,86,44.08,-80.2,28.4,10.29
331,alofi,75,NU,1547593200,74,-19.06,-169.92,87.8,9.17
332,ciudad bolivar,32,VE,1547595753,47,8.12,-63.55,85.94,14.23
333,male,76,UA,1547595801,92,50.74,33.7,24.34,10.42
334,mumford,8,GH,1547595364,91,5.26,-0.76,79.6,8.08
335,road town,20,VG,1547593200,69,18.42,-64.62,77.0,4.7
336,maceio,0,BR,1547593200,69,-9.67,-35.74,78.8,5.82
337,camacupa,80,AO,1547595304,65,-12.02,17.48,66.01,6.17
338,broome,92,GB,1547594400,87,52.47,1.45,46.4,13.87
339,islamkot,0,PK,1547595801,77,24.7,70.18,46.75,2.82
340,platnirovskaya,40,RU,1547593200,93,45.39,39.39,42.8,6.71
341,bathsheba,40,BB,1547593200,74,13.22,-59.52,78.8,13.87
342,salalah,20,OM,1547592600,78,17.01,54.1,71.6,5.82
343,saint-gaudens,0,FR,1547593200,92,43.11,0.72,28.4,3.36
344,medicine hat,20,CA,1547593200,79,50.04,-110.68,26.6,13.87
345,yaan,0,NG,1547595802,70,7.38,8.57,70.37,2.15
346,sibolga,36,ID,1547595310,100,1.74,98.78,67.27,1.7
347,sao filipe,0,CV,1547595301,97,14.9,-24.5,72.26,14.56
348,mangit,90,UZ,1547593200,86,40.6,70.96,37.4,4.7
349,maduao,75,PH,1547593200,94,7.27,125.64,75.2,5.82
350,mandalgovi,0,MN,1547595802,67,45.76,106.27,-12.43,6.62
351,komsomolskiy,76,RU,1547595303,84,67.55,63.78,10.52,7.74
352,katherine,0,AU,1547593200,78,-14.47,132.26,78.8,1.12
353,boyuibe,75,BO,1547593200,54,-20.43,-63.28,84.2,4.7
354,tinskoy,24,RU,1547595802,51,56.15,96.92,-4.06,4.83
355,berberati,0,CF,1547595803,93,4.26,15.79,68.66,2.71
356,bahia honda,0,CU,1547595803,74,22.9,-83.16,68.66,8.63
357,periyapatti,0,IN,1547595803,87,11.22,78.15,52.78,2.37
358,saint-pierre,90,FR,1547593200,86,48.95,4.24,42.8,5.82
359,whitehorse,90,CA,1547593200,85,60.72,-135.06,12.2,2.24
360,san vicente,20,SV,1547592600,48,13.64,-88.78,86.0,5.82
361,pevek,80,RU,1547595328,100,69.7,170.27,-9.15,17.92
362,dori,0,BF,1547595804,46,14.03,-0.03,61.87,3.83
363,narsaq,80,GL,1547596200,80,60.91,-46.05,30.2,2.24
364,galveston,90,US,1547595300,86,40.58,-86.19,30.2,16.11
365,namie,20,JP,1547593200,64,37.52,140.86,39.2,17.22
366,madera,75,US,1547595300,76,36.96,-120.06,57.92,10.29
367,canby,1,US,1547592960,57,45.26,-122.69,44.96,11.41
368,aripuana,8,BR,1547595805,93,-9.17,-60.63,75.73,1.92
369,kodinsk,24,RU,1547595805,73,58.6,99.18,-3.16,5.84
370,general roca,0,AR,1547593200,7,-39.03,-67.58,84.2,16.11
371,watsa,0,CD,1547595806,82,3.04,29.53,67.22,3.71
372,acapulco,20,MX,1547592060,66,16.86,-99.88,84.2,4.7
373,namibe,88,AO,1547595191,100,-15.19,12.15,72.26,8.75
374,kjollefjord,0,NO,1547592600,73,70.95,27.35,26.6,6.93
375,esperance,20,TT,1547593200,78,10.24,-61.45,78.8,5.82
376,hammerfest,0,NO,1547594400,79,70.66,23.68,19.4,3.36
377,udachnyy,68,RU,1547595806,65,66.42,112.4,-23.1,6.96
378,pergamino,0,AR,1547595807,79,-33.9,-60.57,68.89,3.49
379,monzon,12,IT,1547595807,88,46.45,11.69,16.6,1.81
380,itoman,75,JP,1547593200,68,26.12,127.67,66.2,9.17
381,puerto escondido,5,MX,1547592300,66,15.86,-97.07,84.2,9.17
382,garowe,48,SO,1547595807,96,8.41,48.48,61.19,6.4
383,evanston,90,US,1547594100,78,42.04,-87.69,28.94,14.99
384,lazaro cardenas,20,MX,1547592480,51,28.39,-105.62,62.6,26.4
385,kieta,20,PG,1547595807,92,-6.22,155.63,84.01,3.6
386,shache,80,CN,1547595364,85,38.42,77.24,19.84,4.61
387,iralaya,40,HN,1547593200,83,15.0,-83.23,78.8,9.17
388,rommerskirchen,75,DE,1547594760,81,51.03,6.68,44.6,11.41
389,benjamin constant,0,BR,1547593200,88,-4.38,-70.03,77.0,4.7
390,sosnogorsk,92,RU,1547595808,83,63.59,53.93,22.0,6.73
391,beringovskiy,88,RU,1547595301,95,63.05,179.32,6.29,29.89
392,westlock,90,CA,1547593200,92,54.15,-113.85,12.2,6.93
393,waingapu,76,ID,1547595808,100,-9.65,120.26,75.41,4.83
394,karatuzskoye,24,RU,1547595809,50,53.61,92.87,-17.97,2.59
395,altay,76,CN,1547595572,61,47.83,88.13,0.04,2.15
396,faya,0,SA,1547593200,58,18.39,42.45,55.4,2.59
397,gorontalo,88,ID,1547595809,96,0.54,123.06,74.92,2.93
398,saint-georges,64,CA,1547595320,78,46.12,-70.67,10.21,3.49
399,chake chake,44,TZ,1547595809,99,-5.25,39.77,81.26,4.94
400,richards bay,80,ZA,1547595295,100,-28.77,32.06,73.16,9.98
401,pontian kecil,75,MY,1547593200,94,1.48,103.39,80.6,2.24
402,rockland,24,US,1547592960,68,42.13,-70.92,30.92,8.05
403,strezhevoy,0,RU,1547593200,84,60.73,77.6,-2.21,2.24
404,muros,75,ES,1547593200,93,42.77,-9.06,48.2,5.82
405,pecos,1,US,1547594100,54,31.42,-103.49,57.38,5.82
406,kudirkos naumiestis,76,LT,1547595810,88,54.77,22.86,25.69,7.74
407,oda,75,JP,1547593200,60,35.19,132.5,42.8,16.11
408,fort frances,90,CA,1547592900,76,48.61,-93.4,10.94,18.34
409,varhaug,75,NO,1547592600,70,58.61,5.65,42.8,10.29
410,laguna,40,MX,1547592000,41,27.52,-110.01,78.8,6.93
411,tabora,68,TZ,1547595811,96,-5.02,32.81,64.21,4.72
412,yar-sale,80,RU,1547595345,93,66.83,70.83,5.12,10.42
413,gushikawa,90,JP,1547593200,76,26.35,127.87,66.2,10.29
414,baltay,92,RU,1547595811,97,52.47,46.63,31.99,11.99
415,port augusta,40,AU,1547593200,54,-32.49,137.76,78.8,10.29
416,sepuka,92,TZ,1547595811,92,-4.75,34.53,59.62,3.38
417,bilma,0,NE,1547595326,36,18.69,12.92,40.94,6.29
418,ambilobe,0,MG,1547595329,85,-13.19,49.05,67.31,3.38
419,bambanglipuro,92,ID,1547595811,100,-7.95,110.28,73.16,5.61
420,kamenka,92,RU,1547595812,93,53.19,44.05,26.72,2.59
421,chimoio,88,MZ,1547595812,94,-19.11,33.48,71.81,6.06
422,boa vista,40,BR,1547593200,48,2.82,-60.67,87.8,8.05
423,airai,0,TL,1547595229,78,-8.93,125.41,77.57,2.15
424,marystown,92,CA,1547595813,98,47.17,-55.16,30.86,34.92
425,tobol,24,SE,1547594400,100,59.83,12.54,24.8,1.12
426,kiama,0,AU,1547593200,69,-34.67,150.86,82.4,3.36
427,salta,90,AR,1547593200,93,-24.79,-65.41,69.8,5.82
428,whyalla,40,AU,1547593200,54,-33.04,137.58,78.8,10.29
429,labuan,75,BN,1547593200,94,5.28,115.24,77.0,3.36
430,paoua,0,CF,1547595814,46,7.24,16.43,65.2,8.63
431,tual,20,ID,1547595351,99,-5.67,132.75,84.14,9.64
432,ust-nera,20,RU,1547595814,0,64.57,143.24,-62.34,1.7
433,gladstone,40,AU,1547593200,58,-23.84,151.26,84.2,5.82
434,cidreira,24,BR,1547595289,90,-30.17,-50.22,78.02,6.17
435,barreirinhas,80,BR,1547595722,97,-2.75,-42.83,73.93,7.85
436,yerbogachen,88,RU,1547595814,72,61.28,108.01,-6.76,7.07
437,tarnogskiy gorodok,80,RU,1547595815,90,60.5,43.58,27.62,14.56
438,puksoozero,88,RU,1547595815,93,62.59,40.61,25.91,11.99
439,denpasar,75,ID,1547593200,94,-8.65,115.22,77.0,9.17
440,buenos aires,75,AR,1547593200,94,-34.61,-58.44,69.8,10.29
441,nurota,88,UZ,1547595815,91,40.56,65.69,38.87,3.38
442,makakilo city,40,US,1547593020,45,21.35,-158.09,80.96,9.17
443,mudgee,0,AU,1547593200,33,-32.6,149.59,91.4,3.36
444,luocheng,100,CN,1547595816,100,28.29,114.55,35.95,2.71
445,coihaique,75,CL,1547593200,50,-45.58,-72.07,55.4,8.05
446,kavieng,44,PG,1547595176,100,-2.57,150.8,84.59,10.65
447,kuching,75,MY,1547593200,100,1.56,110.34,75.2,4.72
448,broken hill,8,AU,1547593200,11,-31.97,141.45,102.2,20.8
449,san jeronimo,75,PE,1547593200,50,-13.65,-73.37,53.6,12.75
450,kahului,40,US,1547592960,39,20.89,-156.47,82.94,5.82
451,torbay,90,CA,1547593200,100,47.66,-52.73,33.8,11.41
452,shingu,40,JP,1547593200,61,33.72,135.99,46.4,11.41
453,axim,8,GH,1547595817,99,4.87,-2.24,83.06,11.77
454,iskateley,92,RU,1547595817,84,67.68,53.15,14.08,3.38
455,aloleng,0,PH,1547595817,93,16.13,119.78,76.99,10.87
456,navolato,75,MX,1547592000,42,24.76,-107.7,82.4,6.93
457,urucara,32,BR,1547595817,74,-2.54,-57.76,81.31,3.71
458,port shepstone,92,ZA,1547595817,100,-30.74,30.45,71.27,12.66
459,san cristobal,40,EC,1547593200,72,-0.39,-78.55,62.6,9.17
460,eston,90,CA,1547593200,84,51.15,-108.75,6.8,5.82
461,goderich,88,CA,1547595818,88,43.74,-81.71,29.83,18.03
462,halifax,90,CA,1547593200,68,44.65,-63.58,24.8,12.75
463,owando,24,CG,1547595818,96,-0.49,15.91,72.85,2.15
464,zinder,0,NE,1547595818,53,13.81,8.99,52.82,10.42
465,sola,90,FI,1547594400,92,62.78,29.36,23.0,3.36
466,yeppoon,20,AU,1547593200,61,-23.13,150.74,82.4,6.93
467,ellsworth,90,US,1547592960,100,38.73,-98.23,46.04,6.93
468,nouadhibou,80,MR,1547593200,59,20.93,-17.03,64.4,12.75
469,half moon bay,90,US,1547592960,87,37.46,-122.43,55.4,10.29
470,puerto carreno,75,CO,1547593200,46,6.19,-67.49,91.4,4.7
471,the valley,40,AI,1547593200,69,18.22,-63.06,77.0,4.7
472,paita,48,PE,1547595820,65,-5.09,-81.11,78.92,11.88
473,belmonte,36,PT,1547595354,78,40.36,-7.35,29.47,1.36
474,adrar,0,DZ,1547593200,34,27.87,-0.29,48.2,6.93
475,eureka,90,US,1547592900,51,40.8,-124.16,60.08,8.05
476,longhua,92,CN,1547595821,100,29.21,106.21,40.94,5.28
477,ayan,64,TR,1547595291,89,40.67,33.6,26.86,10.76
478,kloulklubed,90,PW,1547592600,88,7.04,134.26,78.8,6.93
479,polunochnoye,36,RU,1547595822,71,60.87,60.43,6.34,6.4
480,hasanabad,0,IR,1547595000,44,35.37,51.24,41.0,3.04
481,qarqin,76,AF,1547595822,98,37.41,66.03,44.81,3.15
482,zamosc,90,PL,1547595000,94,50.72,23.25,33.8,13.87
483,makat,0,KZ,1547595823,85,47.65,53.35,21.14,15.23
484,qarayeri,75,AZ,1547593200,56,40.79,46.31,41.0,6.93
485,erzin,75,TR,1547594400,100,36.95,36.2,50.0,5.82
486,umea,0,SE,1547594400,84,63.83,20.26,-0.41,2.24
487,moerai,48,PF,1547595825,100,-22.43,-151.33,77.66,12.21
488,santa rosa,0,AR,1547595763,50,-36.62,-64.29,75.19,8.19
489,zyryanka,0,RU,1547595305,77,65.73,150.89,-37.59,2.59
490,akureyri,90,IS,1547593200,79,65.68,-18.09,26.6,11.41
491,phan thiet,48,VN,1547595086,100,10.93,108.1,74.2,9.64
492,valle de allende,44,MX,1547595826,58,26.94,-105.39,58.67,3.94
493,marsa matruh,20,EG,1547593200,71,31.35,27.25,53.6,17.22
494,plonsk,75,PL,1547595000,93,52.62,20.38,37.4,23.04
495,jacqueville,40,CI,1547593200,88,5.21,-4.42,82.4,8.05
496,kurilsk,0,RU,1547595827,96,45.23,147.88,32.26,22.06
497,emba,75,CY,1547593200,82,34.81,32.42,57.2,17.22
498,heihe,20,RU,1547593200,75,50.24,127.51,-14.81,4.47
499,pasighat,0,IN,1547595828,58,28.06,95.33,47.02,2.59
500,saravan,40,AM,1547593200,60,39.72,45.65,39.2,11.41
501,sumbe,92,AO,1547595828,100,-11.2,13.84,75.82,3.94
502,hit,0,IQ,1547595828,91,33.64,42.83,42.79,7.18
503,belomorsk,88,RU,1547595828,96,64.52,34.76,26.27,6.73
504,kentau,24,KZ,1547595829,63,43.52,68.5,17.59,2.26
505,seymchan,24,RU,1547595829,84,62.93,152.39,-40.02,2.37
506,macherla,0,IN,1547595829,90,16.48,79.44,57.46,1.92
507,tirumullaivasal,12,IN,1547595341,83,11.24,79.84,75.1,12.55
508,hualmay,36,PE,1547595292,79,-11.1,-77.61,71.86,6.51
509,daru,80,SL,1547595829,54,7.99,-10.85,80.32,8.3
510,tamasopo,88,MX,1547595830,89,21.92,-99.39,58.63,4.16
511,contai,0,IN,1547595830,100,21.78,87.75,60.47,10.2
512,wismar,75,DE,1547594400,93,53.89,11.46,44.6,8.05
513,te anau,44,NZ,1547595830,45,-45.41,167.72,73.3,9.53
514,kruisfontein,100,ZA,1547595830,94,-34.0,24.73,64.79,5.61
515,voyvozh,68,RU,1547595830,87,62.89,54.96,19.66,9.53
516,nalbach,75,DE,1547594400,80,49.38,6.79,39.2,11.41
517,linqiong,0,CN,1547593200,100,30.42,103.46,33.8,1.59
518,shanghai,0,CN,1547593200,74,31.23,121.49,35.6,11.18
519,chipinge,32,ZW,1547595335,89,-20.19,32.62,73.34,7.18
520,bani,0,PH,1547595831,89,15.89,120.27,74.96,7.18
521,ballina,92,IE,1547595831,100,54.11,-9.15,44.77,15.68
522,aksu,90,KZ,1547593200,92,52.04,76.93,19.4,6.71
523,severodvinsk,90,RU,1547593200,100,64.56,39.82,24.8,6.71
524,solnechnyy,36,RU,1547595832,71,50.72,136.64,-10.81,2.37
525,yenagoa,0,NG,1547595832,91,4.92,6.26,76.27,5.39
526,andros town,75,BS,1547593200,68,24.73,-77.79,71.6,8.05
527,porto novo,40,BR,1547593200,69,-23.68,-45.44,78.8,4.7
528,kapit,92,MY,1547595833,96,2.02,112.94,75.1,2.15
529,vao,92,EE,1547595833,86,59.1,26.19,24.34,10.2
530,papetoai,20,PF,1547595000,70,-17.5,-149.87,87.8,12.75
531,vilyuysk,0,RU,1547595369,0,63.75,121.63,-44.56,4.72
532,devils lake,1,US,1547594100,72,48.11,-98.87,6.08,14.99
533,dangara,0,NG,1547595834,35,11.43,7.3,61.87,8.75
534,srednekolymsk,20,RU,1547595834,55,67.46,153.71,-31.83,2.59
535,kropotkin,88,RU,1547595834,94,45.43,40.58,32.62,3.38
536,villarrica,0,CL,1547593200,72,-39.28,-72.23,60.8,10.29
537,syracuse,90,US,1547594100,86,43.05,-76.15,30.92,3.36
538,nkayi,56,CG,1547595835,94,-4.18,13.29,74.2,2.04
539,mareeba,40,AU,1547593200,74,-16.99,145.42,82.4,10.29
540,kokopo,0,PG,1547595835,99,-4.34,152.27,83.65,1.92
